[
  { "id":"alimos","name":"Alimos","lat":37.918,"lon":23.695,"category":"marina","region":"Saronic","aliases":["Αλιμος","Alimos Marina","Kalamaki"] },
  { "id":"lavrio","name":"Lavrio","lat":37.713,"lon":24.058,"category":"harbor","region":"Cyclades","aliases":["Λαυριο","Laurium"] },
  { "id":"piraeus","name":"Piraeus","lat":37.939,"lon":23.646,"category":"harbor","region":"Saronic","aliases":["Πειραιας","Piraeus Port"] },
  { "id":"glyfada","name":"Glyfada","lat":37.862,"lon":23.752,"category":"marina","region":"Saronic","aliases":["Γλυφαδα"] },
  { "id":"vouliagmeni","name":"Vouliagmeni","lat":37.809,"lon":23.787,"category":"marina","region":"Saronic","aliases":["Βουλιαγμενη"] },
  { "id":"rafina","name":"Rafina","lat":38.022,"lon":24.006,"category":"harbor","region":"Cyclades","aliases":["Ραφινα"] },
  { "id":"corinth-canal","name":"Corinth Canal (Isthmia)","lat":37.932,"lon":22.993,"category":"spot","region":"Saronic","aliases":["Διωρυγα Κορινθου","Ισθμια","Corinth Canal","Isthmia"] },

  { "id":"aegina","name":"Aegina","lat":37.746,"lon":23.428,"category":"harbor","region":"Saronic","aliases":["Αιγινα"] },
  { "id":"agistri","name":"Agistri","lat":37.701,"lon":23.347,"category":"harbor","region":"Saronic","aliases":["Αγκιστρι"] },
  { "id":"poros","name":"Poros","lat":37.499,"lon":23.452,"category":"harbor","region":"Saronic","aliases":["Πορος"] },
  { "id":"hydra","name":"Hydra","lat":37.347,"lon":23.465,"category":"harbor","region":"Saronic","aliases":["Υδρα"] },
  { "id":"spetses","name":"Spetses","lat":37.262,"lon":23.156,"category":"harbor","region":"Saronic","aliases":["Σπετσες"] },
  { "id":"ermioni","name":"Ermioni","lat":37.386,"lon":23.246,"category":"harbor","region":"Saronic","aliases":["Ερμιονη"] },
  { "id":"porto-cheli","name":"Porto Cheli","lat":37.325,"lon":23.146,"category":"harbor","region":"Saronic","aliases":["Πορτο Χελι","Porto Heli"] },
  { "id":"nafplio","name":"Nafplio","lat":37.568,"lon":22.798,"category":"harbor","region":"Saronic","aliases":["Ναυπλιο"] },

  { "id":"kea","name":"Kea","lat":37.666,"lon":24.333,"category":"harbor","region":"Cyclades","aliases":["Κεα","Tzia"] },
  { "id":"kythnos","name":"Kythnos","lat":37.393,"lon":24.417,"category":"harbor","region":"Cyclades","aliases":["Κυθνος"] },
  { "id":"syros","name":"Syros","lat":37.444,"lon":24.943,"category":"harbor","region":"Cyclades","aliases":["Συρος","Ermoupoli"] },
  { "id":"tinos","name":"Tinos","lat":37.539,"lon":25.163,"category":"harbor","region":"Cyclades","aliases":["Τηνος"] },
  { "id":"mykonos","name":"Mykonos","lat":37.446,"lon":25.328,"category":"harbor","region":"Cyclades","aliases":["Μυκονος"] },
  { "id":"naxos","name":"Naxos","lat":37.105,"lon":25.376,"category":"harbor","region":"Cyclades","aliases":["Ναξος"] },
  { "id":"paros","name":"Paros","lat":37.085,"lon":25.148,"category":"harbor","region":"Cyclades","aliases":["Παρος"] },
  { "id":"antiparos","name":"Antiparos","lat":36.994,"lon":25.082,"category":"harbor","region":"Cyclades","aliases":["Αντιπαρος"] },
  { "id":"ios","name":"Ios","lat":36.721,"lon":25.283,"category":"harbor","region":"Cyclades","aliases":["Ιος"] },
  { "id":"santorini","name":"Santorini","lat":36.407,"lon":25.456,"category":"harbor","region":"Cyclades","aliases":["Σαντορινη","Thira"] },
  { "id":"milos","name":"Milos","lat":36.748,"lon":24.444,"category":"harbor","region":"Cyclades","aliases":["Μηλος","Adamas"] },
  { "id":"sifnos","name":"Sifnos","lat":36.985,"lon":24.674,"category":"harbor","region":"Cyclades","aliases":["Σιφνος"] },
  { "id":"serifos","name":"Serifos","lat":37.143,"lon":24.515,"category":"harbor","region":"Cyclades","aliases":["Σεριφος"] },

  { "id":"corfu","name":"Corfu","lat":39.619,"lon":19.92,"category":"harbor","region":"Ionian","aliases":["Kerkyra","Κερκυρα"] },
  { "id":"paxos","name":"Paxos","lat":39.198,"lon":20.182,"category":"harbor","region":"Ionian","aliases":["Παξοι","Gaios"] },
  { "id":"antipaxos","name":"Antipaxos","lat":39.134,"lon":20.23,"category":"anchorage","region":"Ionian","aliases":["Αντιπαξοι"] },
  { "id":"preveza","name":"Preveza","lat":38.958,"lon":20.751,"category":"harbor","region":"Ionian","aliases":["Πρεβεζα"] },
  { "id":"lefkas","name":"Lefkada","lat":38.828,"lon":20.706,"category":"harbor","region":"Ionian","aliases":["Λευκαδα","Lefkas"] },
  { "id":"meganisi","name":"Meganisi","lat":38.658,"lon":20.787,"category":"harbor","region":"Ionian","aliases":["Μεγανησι"] },
  { "id":"kalamos","name":"Kalamos","lat":38.62,"lon":20.942,"category":"harbor","region":"Ionian","aliases":["Καλαμος"] },
  { "id":"kastos","name":"Kastos","lat":38.569,"lon":20.975,"category":"harbor","region":"Ionian","aliases":["Καστος"] },
  { "id":"ithaca","name":"Ithaca","lat":38.373,"lon":20.718,"category":"harbor","region":"Ionian","aliases":["Ιθακη","Vathy Ithaca"] },
  { "id":"kefalonia","name":"Kefalonia","lat":38.18,"lon":20.489,"category":"harbor","region":"Ionian","aliases":["Κεφαλονια","Argostoli","Sami"] },
  { "id":"zakynthos","name":"Zakynthos","lat":37.789,"lon":20.898,"category":"harbor","region":"Ionian","aliases":["Ζακυνθος","Zante"] },

  { "id":"rhodes","name":"Rhodes","lat":36.435,"lon":28.222,"category":"harbor","region":"Dodecanese","aliases":["Ροδος","Rodos"] },
  { "id":"symi","name":"Symi","lat":36.616,"lon":27.839,"category":"harbor","region":"Dodecanese","aliases":["Συμη"] },
  { "id":"kos","name":"Kos","lat":36.892,"lon":27.287,"category":"harbor","region":"Dodecanese","aliases":["Κως"] },
  { "id":"kalymnos","name":"Kalymnos","lat":36.955,"lon":26.98,"category":"harbor","region":"Dodecanese","aliases":["Καλυμνος"] },
  { "id":"patmos","name":"Patmos","lat":37.313,"lon":26.548,"category":"harbor","region":"Dodecanese","aliases":["Πατμος","Skala"] },

  { "id":"volos","name":"Volos","lat":39.365,"lon":22.942,"category":"harbor","region":"Sporades","aliases":["Βολος"] },
  { "id":"skiathos","name":"Skiathos","lat":39.162,"lon":23.49,"category":"harbor","region":"Sporades","aliases":["Σκιαθος"] },
  { "id":"skopelos","name":"Skopelos","lat":39.121,"lon":23.725,"category":"harbor","region":"Sporades","aliases":["Σκοπελος"] },
  { "id":"alonissos","name":"Alonissos","lat":39.146,"lon":23.864,"category":"harbor","region":"Sporades","aliases":["Αλοννησος","Patitiri"] },

  { "id":"thessaloniki","name":"Thessaloniki","lat":40.64,"lon":22.944,"category":"harbor","region":"NorthAegean","aliases":["Θεσσαλονικη"] },
  { "id":"kavala","name":"Kavala","lat":40.937,"lon":24.405,"category":"harbor","region":"NorthAegean","aliases":["Καβαλα"] },
  { "id":"thassos","name":"Thassos","lat":40.778,"lon":24.709,"category":"harbor","region":"NorthAegean","aliases":["Θασος","Limenas"] },
  { "id":"samothraki","name":"Samothraki","lat":40.473,"lon":25.528,"category":"harbor","region":"NorthAegean","aliases":["Σαμοθρακη"] },
  { "id":"lemnos","name":"Lemnos","lat":39.915,"lon":25.063,"category":"harbor","region":"NorthAegean","aliases":["Λημνος","Myrina"] },
  { "id":"lesvos","name":"Lesvos","lat":39.105,"lon":26.555,"category":"harbor","region":"NorthAegean","aliases":["Λεσβος","Μυτιληνη","Mytilene"] },
  { "id":"chios","name":"Chios","lat":38.37,"lon":26.133,"category":"harbor","region":"NorthAegean","aliases":["Χιος"] },
  { "id":"samos","name":"Samos","lat":37.754,"lon":26.977,"category":"harbor","region":"NorthAegean","aliases":["Σαμος","Vathy Samos"] },
  { "id":"ikaria","name":"Ikaria","lat":37.612,"lon":26.293,"category":"harbor","region":"NorthAegean","aliases":["Ικαρια","Evdilos","Agios Kirykos"] },

  { "id":"nea-moudania","name":"Nea Moudania","lat":40.241,"lon":23.287,"category":"harbor","region":"NorthAegean","aliases":["Νεα Μουδανια"] },
  { "id":"sani-marina","name":"Sani Marina","lat":40.097,"lon":23.312,"category":"marina","region":"NorthAegean","aliases":["Σανη Μαρινα"] },
  { "id":"nikiti","name":"Nikiti","lat":40.221,"lon":23.667,"category":"harbor","region":"NorthAegean","aliases":["Νικητη"] },
  { "id":"vourvourou","name":"Vourvourou","lat":40.203,"lon":23.768,"category":"anchorage","region":"NorthAegean","aliases":["Βουρβουρου"] },
  { "id":"ormos-panagias","name":"Ormos Panagias","lat":40.25,"lon":23.716,"category":"harbor","region":"NorthAegean","aliases":["Ορμος Παναγιας"] },
  { "id":"ouranoupoli","name":"Ouranoupoli","lat":40.324,"lon":23.983,"category":"harbor","region":"NorthAegean","aliases":["Ουρανούπολη","Ouranoupolis"] },
  { "id":"neos-marmaras","name":"Neos Marmaras","lat":40.096,"lon":23.784,"category":"harbor","region":"NorthAegean","aliases":["Νεος Μαρμαρας"] },
  { "id":"porto-carras","name":"Porto Carras Marina","lat":40.101,"lon":23.793,"category":"marina","region":"NorthAegean","aliases":["Porto Carras"] },
  { "id":"porto-koufo","name":"Porto Koufo","lat":39.981,"lon":23.916,"category":"harbor","region":"NorthAegean","aliases":["Πορτο Κουφο"] },

  { "id":"chania","name":"Chania","lat":35.515,"lon":24.018,"category":"harbor","region":"Crete","aliases":["Χανια"] },
  { "id":"rethymno","name":"Rethymno","lat":35.369,"lon":24.473,"category":"harbor","region":"Crete","aliases":["Ρεθυμνο"] },
  { "id":"heraklion","name":"Heraklion","lat":35.34,"lon":25.137,"category":"harbor","region":"Crete","aliases":["Ηρακλειο","Iraklio"] },
  { "id":"agios-nikolaos","name":"Agios Nikolaos","lat":35.19,"lon":25.716,"category":"harbor","region":"Crete","aliases":["Αγιος Νικολαος"] }
]
